[
  {"name": "Guignes", "lat": 48.6333, "lon": 2.8000, "sources": [{"type": "mairie", "url": "https://www.guignes.fr"}]},
  {"name": "Fouju", "lat": 48.6000, "lon": 2.7500, "sources": [{"type": "mairie", "url": "https://www.fouju.fr"}]},
  {"name": "Verneuil-l'Étang", "lat": 48.6236, "lon": 2.8333, "sources": [{"type": "mairie", "url": "https://www.verneuil-letang.fr"}]},
  {"name": "Chaumes-en-Brie", "lat": 48.6500, "lon": 2.8500, "sources": [{"type": "mairie", "url": "https://www.chaumes-en-brie.fr"}]},
  {"name": "Fontenay-Trésigny", "lat": 48.6833, "lon": 2.8667, "sources": [{"type": "mairie", "url": "https://www.fontenay-tresigny.fr"}]},
  {"name": "Rozay-en-Brie", "lat": 48.6833, "lon": 2.9500, "sources": [{"type": "mairie", "url": "https://www.rozay-en-brie.fr"}]},
  {"name": "Courtomer", "lat": 48.6500, "lon": 2.9167, "sources": [{"type": "mairie", "url": "https://www.courtomer77.fr"}]},
  {"name": "Argentières", "lat": 48.6167, "lon": 2.8667, "sources": [{"type": "mairie", "url": "https://www.argentières.fr"}]},
  {"name": "Aubepierre-Ozouer-le-Repos", "lat": 48.6500, "lon": 2.9000, "sources": [{"type": "mairie", "url": "https://www.aubepierre-ozouer.fr"}]},
  {"name": "Mormant", "lat": 48.6083, "lon": 2.9000, "sources": [{"type": "mairie", "url": "https://www.mormant.fr"}]},
  {"name": "Nangis", "lat": 48.5500, "lon": 3.0167, "sources": [{"type": "mairie", "url": "https://www.ville-nangis.fr"}]},
  {"name": "Provins", "lat": 48.5600, "lon": 3.3000, "sources": [{"type": "mairie", "url": "https://www.mairie-provins.fr"}]},
  {"name": "Melun", "lat": 48.5386, "lon": 2.6611, "sources": [{"type": "mairie", "url": "https://www.ville-melun.fr"}]},
  {"name": "Champdeuil", "lat": 48.6500, "lon": 2.7667, "sources": [{"type": "mairie", "url": "https://www.champdeuil.fr"}]},
  {"name": "Courquetaine", "lat": 48.6667, "lon": 2.7333, "sources": [{"type": "mairie", "url": "https://www.courquetaine.fr"}]},
  {"name": "Liverdy-en-Brie", "lat": 48.7000, "lon": 2.7500, "sources": [{"type": "mairie", "url": "https://www.liverdy-en-brie.fr"}]},
  {"name": "Presles-en-Brie", "lat": 48.7000, "lon": 2.7667, "sources": [{"type": "mairie", "url": "https://www.presles-en-brie.fr"}]},
  {"name": "Coubert", "lat": 48.6667, "lon": 2.7000, "sources": [{"type": "mairie", "url": "https://www.coubert.fr"}]},
  {"name": "Brie-Comte-Robert", "lat": 48.6833, "lon": 2.6000, "sources": [{"type": "mairie", "url": "https://www.briecomterobert.fr"}]},
  {"name": "Solers", "lat": 48.6500, "lon": 2.7000, "sources": [{"type": "mairie", "url": "https://www.solers.fr"}]},
  {"name": "Évry-Grésy-sur-Yerres", "lat": 48.6667, "lon": 2.6500, "sources": [{"type": "mairie", "url": "https://www.evry-gresy-sur-yerres.fr"}]},
  {"name": "Ozoir-la-Ferrière", "lat": 48.7667, "lon": 2.6667, "sources": [{"type": "mairie", "url": "https://www.mairie-ozoir-la-ferriere.fr"}]},
  {"name": "Chevry-Cossigny", "lat": 48.7167, "lon": 2.6667, "sources": [{"type": "mairie", "url": "https://www.chevry-cossigny.fr"}]},
  {"name": "Grisy-Suisnes", "lat": 48.6833, "lon": 2.6833, "sources": [{"type": "mairie", "url": "https://www.grisy-suisnes.fr"}]},
  {"name": "Soignolles-en-Brie", "lat": 48.6333, "lon": 2.6500, "sources": [{"type": "mairie", "url": "https://www.soignolles-en-brie.fr"}]},
  {"name": "Fontainebleau", "lat": 48.4047, "lon": 2.7016, "sources": [{"type": "mairie", "url": "https://www.fontainebleau.fr"}]}
]